{
  "aircrafts": [
    "A20N",
    "A20N_LHX",
    "A21F",
    "A21N",
    "A319",
    "A319_LHX",
    "A320",
    "A321",
    "A333",
    "A343",
    "A346",
    "A359",
    "A388",
    "B744",
    "B748",
    "B77L",
    "B789",
    "CRJ9",
    "E190"
  ],
  "generated_at": "2024-09-01 11:45:52",
  "routes": [
    {
      "id": 11202,
      "name": "Frankfurt-Main",
      "icao": "EDDF",
      "iata": "FRA",
      "base": true,
      "latitude": "50.0365210",
      "longitude": "8.5612680",
      "destinations": [
        {
          "id": 11265,
          "pair_id": 354668,
          "name": "Abuja Nnamdi Azikiwe",
          "icao": "DNAA",
          "iata": "ABV",
          "latitude": "9.0067900",
          "longitude": "7.2631700",
          "callsigns": "DLH",
          "types": "A333,A343",
          "distance": 2462,
          "time": "09:00:00"
        },
        {
          "id": 11556,
          "pair_id": 128943,
          "name": "Afonso Pena",
          "icao": "SBCT",
          "iata": "CWB",
          "latitude": "-25.5285000",
          "longitude": "-49.1758000",
          "callsigns": "GEC",
          "types": "B77L",
          "distance": 5472,
          "time": "13:15:00"
        },
        {
          "id": 11266,
          "pair_id": 129221,
          "name": "Algiers Houari Boumediene",
          "icao": "DAAG",
          "iata": "ALG",
          "latitude": "36.6938860",
          "longitude": "3.2145310",
          "callsigns": "DLH",
          "types": "A20N,A21N,A319,A320,A321",
          "distance": 833,
          "time": "02:35:00"
        },
        {
          "id": 11267,
          "pair_id": 838007,
          "name": "Alicante",
          "icao": "LEAL",
          "iata": "ALC",
          "latitude": "38.2822000",
          "longitude": "-0.5581560",
          "callsigns": "DLH",
          "types": "A20N,A21N,A319,A320,A321",
          "distance": 806,
          "time": "02:35:00"
        },
        {
          "id": 16828,
          "pair_id": 2084702,
          "name": "Almaty",
          "icao": "UAAA",
          "iata": "ALA",
          "latitude": "43.3542670",
          "longitude": "77.0428280",
          "callsigns": "DLH,GEC",
          "types": "A333,A343,B77L",
          "distance": 2746,
          "time": "06:58:20"
        },
        {
          "id": 11268,
          "pair_id": 2499151,
          "name": "Amman Queen Alia",
          "icao": "OJAI",
          "iata": "AMM",
          "latitude": "31.7226009",
          "longitude": "35.9931984",
          "callsigns": "DLH",
          "types": "A20N,A21N,A319,A320,A321",
          "distance": 1643,
          "time": "04:20:00"
        },
        {
          "id": 11269,
          "pair_id": 129959,
          "name": "Amsterdam Schiphol",
          "icao": "EHAM",
          "iata": "AMS",
          "latitude": "52.3086010",
          "longitude": "4.7638900",
          "callsigns": "DLH",
          "types": "A20N,A21N,A319,A320,A321,CRJ9,E190",
          "distance": 198,
          "time": "01:15:00"
        },
        {
          "id": 105237,
          "pair_id": 2414894,
          "name": "Asturias Airport",
          "icao": "LEAS",
          "iata": "OVD",
          "latitude": "43.5635990",
          "longitude": "-6.0346200",
          "callsigns": "DLH",
          "types": "A20N,A21N,A319,A320,A321",
          "distance": 712,
          "time": "02:20:00"
        },
        {
          "id": 11270,
          "pair_id": 129232,
          "name": "Athens Eleftherios Venizelos",
          "icao": "LGAV",
          "iata": "ATH",
          "latitude": "37.9364010",
          "longitude": "23.9445000",
          "callsigns": "DLH",
          "types": "A20N,A21N,A319,A320,A321,CRJ9",
          "distance": 980,
          "time": "02:47:30"
        },
        {
          "id": 11549,
          "pair_id": 319341,
          "name": "Atlanta Hartsfield\u2013Jackson",
          "icao": "KATL",
          "iata": "ATL",
          "latitude": "33.6367000",
          "longitude": "-84.4281010",
          "callsigns": "DLH",
          "types": "A333,A343,A346",
          "distance": 3998,
          "time": "10:00:00"
        },
        {
          "id": 18277,
          "pair_id": 1097730,
          "name": "Austin",
          "icao": "KAUS",
          "iata": "AUS",
          "latitude": "30.1975350",
          "longitude": "-97.6620150",
          "callsigns": "DLH",
          "types": "B789",
          "distance": 4601,
          "time": "11:10:00"
        },
        {
          "id": 21789,
          "pair_id": 433100,
          "name": "Baku",
          "icao": "UBBB",
          "iata": "GYD",
          "latitude": "40.4674988",
          "longitude": "50.0466995",
          "callsigns": "DLH",
          "types": "A20N,A21N,A319,A320,A321",
          "distance": 1817,
          "time": "04:45:00"
        },
        {
          "id": 11275,
          "pair_id": 128926,
          "name": "Barcelona El Prat",
          "icao": "LEBL",
          "iata": "BCN",
          "latitude": "41.2971000",
          "longitude": "2.0784600",
          "callsigns": "DLH",
          "types": "A20N,A21N,A319,A320,A321",
          "distance": 590,
          "time": "02:01:53"
        },
        {
          "id": 17178,
          "pair_id": 2514410,
          "name": "Bastia",
          "icao": "LFKB",
          "iata": "BIA",
          "latitude": "42.5527000",
          "longitude": "9.4837303",
          "callsigns": "DLH",
          "types": "A20N,A21N,A319,A320,A321",
          "distance": 451,
          "time": "01:35:00"
        },
        {
          "id": 11278,
          "pair_id": 1527035,
          "name": "Beijing Capital",
          "icao": "ZBAA",
          "iata": "PEK",
          "latitude": "40.0801010",
          "longitude": "116.5849991",
          "callsigns": "DLH,GEC",
          "types": "B744,B748,B77L",
          "distance": 4210,
          "time": "10:40:00"
        },
        {
          "id": 11279,
          "pair_id": 2124383,
          "name": "Beirut Rafic Hariri",
          "icao": "OLBA",
          "iata": "BEY",
          "latitude": "33.8209000",
          "longitude": "35.4883995",
          "callsigns": "DLH",
          "types": "A20N,A21N,A319,A320,A321",
          "distance": 1532,
          "time": "04:00:00"
        },
        {
          "id": 11280,
          "pair_id": 128927,
          "name": "Belgrade Nikola Tesla",
          "icao": "LYBE",
          "iata": "BEG",
          "latitude": "44.8184010",
          "longitude": "20.3090990",
          "callsigns": "DLH",
          "types": "A20N,A21N,A319,A320,A321",
          "distance": 569,
          "time": "01:51:40"
        },
        {
          "id": 11281,
          "pair_id": 128932,
          "name": "Bengaluru Kempegowda",
          "icao": "VOBL",
          "iata": "BLR",
          "latitude": "13.1979000",
          "longitude": "77.7062990",
          "callsigns": "GEC,DLH",
          "types": "B77L,B744,B748",
          "distance": 3994,
          "time": "09:15:00"
        },
        {
          "id": 18270,
          "pair_id": 239267,
          "name": "Bergen",
          "icao": "ENBR",
          "iata": "BGO",
          "latitude": "60.2934000",
          "longitude": "5.2181400",
          "callsigns": "DLH",
          "types": "A20N,A21N,A319,A320,A321",
          "distance": 626,
          "time": "02:00:00"
        },
        {
          "id": 11282,
          "pair_id": 129144,
          "name": "Berlin Brandenburg",
          "icao": "EDDB",
          "iata": "BER",
          "latitude": "52.3622470",
          "longitude": "13.5006720",
          "callsigns": "DLH",
          "types": "A20N,A21N,A319,A320,A321,CRJ9,E190",
          "distance": 232,
          "time": "01:10:00"
        },
        {
          "id": 78567,
          "pair_id": 2514416,
          "name": "Biarritz Pays Basque Airport",
          "icao": "LFBZ",
          "iata": "BIQ",
          "latitude": "43.4683333",
          "longitude": "-1.5311111",
          "callsigns": "DLH",
          "types": "A20N,A21N,A319,A320,A321",
          "distance": 571,
          "time": "02:00:00"
        },
        {
          "id": 11284,
          "pair_id": 129146,
          "name": "Bilbao",
          "icao": "LEBB",
          "iata": "BIO",
          "latitude": "43.3011020",
          "longitude": "-2.9106100",
          "callsigns": "DLH",
          "types": "A20N,A21N,A319,A320,A321",
          "distance": 621,
          "time": "02:08:20"
        },
        {
          "id": 11285,
          "pair_id": 128930,
          "name": "Billund",
          "icao": "EKBI",
          "iata": "BLL",
          "latitude": "55.7404960",
          "longitude": "9.1604520",
          "callsigns": "DLH",
          "types": "A20N,A21N,A319,A320,A321,CRJ9,E190",
          "distance": 343,
          "time": "01:16:15"
        },
        {
          "id": 11286,
          "pair_id": 129145,
          "name": "Birmingham",
          "icao": "EGBB",
          "iata": "BHX",
          "latitude": "52.4538990",
          "longitude": "-1.7480300",
          "callsigns": "GEC,DLH",
          "types": "A21F,A20N,A21N,A319,A320,A321,E190,CRJ9",
          "distance": 413,
          "time": "01:40:00"
        },
        {
          "id": 11287,
          "pair_id": 128933,
          "name": "Bogota El Dorado",
          "icao": "SKBO",
          "iata": "BOG",
          "latitude": "4.7015900",
          "longitude": "-74.1469000",
          "callsigns": "DLH",
          "types": "A343,A346",
          "distance": 4903,
          "time": "11:40:00"
        },
        {
          "id": 11288,
          "pair_id": 128931,
          "name": "Bologna Guglielmo Marconi",
          "icao": "LIPE",
          "iata": "BLQ",
          "latitude": "44.5354000",
          "longitude": "11.2887000",
          "callsigns": "DLH",
          "types": "A20N,A21N,A319,A320,A321,CRJ9,E190",
          "distance": 348,
          "time": "01:21:15"
        },
        {
          "id": 18261,
          "pair_id": 239210,
          "name": "Bordeaux\u2013M\u00e9rignac",
          "icao": "LFBD",
          "iata": "BOD",
          "latitude": "44.8283000",
          "longitude": "-0.7155560",
          "callsigns": "DLH",
          "types": "A20N,A21N,A319,A320,A321,CRJ9,E190",
          "distance": 489,
          "time": "01:42:30"
        },
        {
          "id": 11289,
          "pair_id": 319343,
          "name": "Boston Logan",
          "icao": "KBOS",
          "iata": "BOS",
          "latitude": "42.3643000",
          "longitude": "-71.0052030",
          "callsigns": "DLH",
          "types": "A333,A343,A346",
          "distance": 3177,
          "time": "09:02:30"
        },
        {
          "id": 11290,
          "pair_id": 128936,
          "name": "Bremen",
          "icao": "EDDW",
          "iata": "BRE",
          "latitude": "53.0467860",
          "longitude": "8.7893200",
          "callsigns": "DLH",
          "types": "A319,CRJ9,E190,A20N,A21N,A320,A321",
          "distance": 181,
          "time": "00:56:00"
        },
        {
          "id": 11291,
          "pair_id": 128937,
          "name": "Brussels",
          "icao": "EBBR",
          "iata": "BRU",
          "latitude": "50.9014020",
          "longitude": "4.4844400",
          "callsigns": "DLH,GEC",
          "types": "A20N,A21N,A319,A320,A321,CRJ9,E190,B77L",
          "distance": 164,
          "time": "00:58:34"
        },
        {
          "id": 11292,
          "pair_id": 129187,
          "name": "Bucharest Henri Coanda",
          "icao": "LROP",
          "iata": "OTP",
          "latitude": "44.5721270",
          "longitude": "26.1033960",
          "callsigns": "DLH",
          "types": "A20N,A21N,A319,A320,A321",
          "distance": 782,
          "time": "02:20:00"
        },
        {
          "id": 11293,
          "pair_id": 129147,
          "name": "Budapest Ferenc Liszt",
          "icao": "LHBP",
          "iata": "BUD",
          "latitude": "47.4301800",
          "longitude": "19.2623930",
          "callsigns": "DLH",
          "types": "A20N,A21N,A319,A320,A321",
          "distance": 450,
          "time": "01:35:00"
        },
        {
          "id": 11294,
          "pair_id": 129150,
          "name": "Buenos Aires Ministro Pistarini",
          "icao": "SAEZ",
          "iata": "EZE",
          "latitude": "-34.8222000",
          "longitude": "-58.5358000",
          "callsigns": "DLH",
          "types": "B744,B748",
          "distance": 6206,
          "time": "14:00:00"
        },
        {
          "id": 17180,
          "pair_id": 2390301,
          "name": "Cagliari",
          "icao": "LIEE",
          "iata": "CAG",
          "latitude": "39.2514990",
          "longitude": "9.0542800",
          "callsigns": "DLH",
          "types": "A20N,A21N,A319,A320,A321",
          "distance": 647,
          "time": "02:10:00"
        },
        {
          "id": 11295,
          "pair_id": 129321,
          "name": "Cairo",
          "icao": "HECA",
          "iata": "CAI",
          "latitude": "30.1115340",
          "longitude": "31.3966940",
          "callsigns": "GEC,DLH",
          "types": "A21F,A20N,A21N,A319,A320,A321",
          "distance": 1577,
          "time": "04:08:20"
        },
        {
          "id": 11297,
          "pair_id": 128940,
          "name": "Cape Town",
          "icao": "FACT",
          "iata": "CPT",
          "latitude": "-33.9648018",
          "longitude": "18.6016998",
          "callsigns": "DLH",
          "types": "A333,A343",
          "distance": 5068,
          "time": "13:25:00"
        },
        {
          "id": 11298,
          "pair_id": 216144,
          "name": "Catania Fontanarossa",
          "icao": "LICC",
          "iata": "CTA",
          "latitude": "37.4668010",
          "longitude": "15.0664000",
          "callsigns": "DLH",
          "types": "A20N,A21N,A319,A320,A321",
          "distance": 804,
          "time": "02:22:30"
        },
        {
          "id": 11301,
          "pair_id": 2085020,
          "name": "Chengdu Shuangliu",
          "icao": "ZUUU",
          "iata": "CTU",
          "latitude": "30.5582570",
          "longitude": "103.9459660",
          "callsigns": "GEC",
          "types": "B77L",
          "distance": 4215,
          "time": "10:20:00"
        },
        {
          "id": 11551,
          "pair_id": 1061072,
          "name": "Chennai\u00a0",
          "icao": "VOMM",
          "iata": "MAA",
          "latitude": "12.9900050",
          "longitude": "80.1692960",
          "callsigns": "GEC,DLH",
          "types": "B77L,A333,A343",
          "distance": 4097,
          "time": "09:27:30"
        },
        {
          "id": 11302,
          "pair_id": 319345,
          "name": "Chicago O'Hare",
          "icao": "KORD",
          "iata": "ORD",
          "latitude": "41.9786000",
          "longitude": "-87.9048000",
          "callsigns": "DLH,GEC",
          "types": "A346,B744,B748,A343,B77L",
          "distance": 3761,
          "time": "09:23:20"
        },
        {
          "id": 167175,
          "pair_id": 2514418,
          "name": "Chisinau International Airport",
          "icao": "LUKK",
          "iata": "RMO",
          "latitude": "46.9277000",
          "longitude": "28.9310000",
          "callsigns": "DLH",
          "types": "A319,CRJ9,E190",
          "distance": 828,
          "time": "02:20:00"
        },
        {
          "id": 11307,
          "pair_id": 128939,
          "name": "Copenhagen",
          "icao": "EKCH",
          "iata": "CPH",
          "latitude": "55.6179008",
          "longitude": "12.6560001",
          "callsigns": "DLH",
          "types": "A20N,A21N,A319,A320,A321",
          "distance": 366,
          "time": "01:22:00"
        },
        {
          "id": 16698,
          "pair_id": 2414886,
          "name": "Cork",
          "icao": "EICK",
          "iata": "ORK",
          "latitude": "51.8413010",
          "longitude": "-8.4911100",
          "callsigns": "DLH",
          "types": "A319,CRJ9,E190",
          "distance": 652,
          "time": "02:10:00"
        },
        {
          "id": 11550,
          "pair_id": 128946,
          "name": "Dallas\/Fort Worth",
          "icao": "KDFW",
          "iata": "DFW",
          "latitude": "32.8968010",
          "longitude": "-97.0380020",
          "callsigns": "DLH,GEC",
          "types": "A333,A343,B77L",
          "distance": 4456,
          "time": "11:05:00"
        },
        {
          "id": 11313,
          "pair_id": 128944,
          "name": "Delhi Indira Gandhi",
          "icao": "VIDP",
          "iata": "DEL",
          "latitude": "28.5556300",
          "longitude": "77.0951900",
          "callsigns": "DLH",
          "types": "A343,A346",
          "distance": 3303,
          "time": "08:05:00"
        },
        {
          "id": 11317,
          "pair_id": 1553199,
          "name": "Denver",
          "icao": "KDEN",
          "iata": "DEN",
          "latitude": "39.8616982",
          "longitude": "-104.6729965",
          "callsigns": "DLH",
          "types": "A333,A343,B789",
          "distance": 4364,
          "time": "10:55:00"
        },
        {
          "id": 11321,
          "pair_id": 239257,
          "name": "Detroit Metropolitan Wayne County",
          "icao": "KDTW",
          "iata": "DTW",
          "latitude": "42.2123985",
          "longitude": "-83.3534012",
          "callsigns": "DLH",
          "types": "A343,A346",
          "distance": 3604,
          "time": "09:15:00"
        },
        {
          "id": 11325,
          "pair_id": 128949,
          "name": "Dresden",
          "icao": "EDDC",
          "iata": "DRS",
          "latitude": "51.1341230",
          "longitude": "13.7678310",
          "callsigns": "DLH",
          "types": "A319,CRJ9,A20N,A21N,A320,A321,E190",
          "distance": 209,
          "time": "00:57:30"
        },
        {
          "id": 11329,
          "pair_id": 128952,
          "name": "Dubai",
          "icao": "OMDB",
          "iata": "DXB",
          "latitude": "25.2528000",
          "longitude": "55.3643990",
          "callsigns": "DLH",
          "types": "A333,A343",
          "distance": 2613,
          "time": "06:50:00"
        },
        {
          "id": 11332,
          "pair_id": 128950,
          "name": "Dublin",
          "icao": "EIDW",
          "iata": "DUB",
          "latitude": "53.4287130",
          "longitude": "-6.2621210",
          "callsigns": "DLH",
          "types": "A20N,A21N,A319,A320,A321,CRJ9,E190",
          "distance": 586,
          "time": "02:06:15"
        },
        {
          "id": 11338,
          "pair_id": 128951,
          "name": "Dusseldorf",
          "icao": "EDDL",
          "iata": "DUS",
          "latitude": "51.2895010",
          "longitude": "6.7667800",
          "callsigns": "DLH",
          "types": "A20N,A21N,A319,A320,A321,CRJ9,E190",
          "distance": 102,
          "time": "00:48:00"
        },
        {
          "id": 11342,
          "pair_id": 128953,
          "name": "Edinburgh",
          "icao": "EGPH",
          "iata": "EDI",
          "latitude": "55.9501450",
          "longitude": "-3.3722880",
          "callsigns": "DLH",
          "types": "A20N,A21N,A319,A320,A321,CRJ9",
          "distance": 557,
          "time": "01:58:20"
        },
        {
          "id": 18260,
          "pair_id": 239208,
          "name": "EuroAirport Basel Mulhouse",
          "icao": "LFSB",
          "iata": "BSL",
          "latitude": "47.6006800",
          "longitude": "7.5211170",
          "callsigns": "DLH",
          "types": "A319,CRJ9,E190",
          "distance": 152,
          "time": "00:48:00"
        },
        {
          "id": 11357,
          "pair_id": 129184,
          "name": "Faro",
          "icao": "LPFR",
          "iata": "FAO",
          "latitude": "37.0144005",
          "longitude": "-7.9659100",
          "callsigns": "DLH",
          "types": "A20N,A21N,A319,A320,A321,CRJ9,E190",
          "distance": 1057,
          "time": "03:07:30"
        },
        {
          "id": 133001,
          "pair_id": 2661608,
          "name": "Felipe Angeles International Airport",
          "icao": "MMSM",
          "iata": "NLU",
          "latitude": "19.7357000",
          "longitude": "-99.0257000",
          "callsigns": "GEC",
          "types": "B77L",
          "distance": 5138,
          "time": "11:50:00"
        },
        {
          "id": 11384,
          "pair_id": 239215,
          "name": "Gdansk Lech Walesa",
          "icao": "EPGD",
          "iata": "GDN",
          "latitude": "54.3776020",
          "longitude": "18.4662000",
          "callsigns": "DLH",
          "types": "A319,CRJ9,E190",
          "distance": 447,
          "time": "01:30:00"
        },
        {
          "id": 11390,
          "pair_id": 277030,
          "name": "Geneva",
          "icao": "LSGG",
          "iata": "GVA",
          "latitude": "46.2380980",
          "longitude": "6.1089500",
          "callsigns": "DLH",
          "types": "A319,CRJ9,E190,A20N,A21N,A320,A321",
          "distance": 248,
          "time": "01:05:00"
        },
        {
          "id": 105235,
          "pair_id": 1759518,
          "name": "George Best Belfast City Airport",
          "icao": "EGAC",
          "iata": "BHD",
          "latitude": "54.6180990",
          "longitude": "-5.8725000",
          "callsigns": "DLH",
          "types": "A319,CRJ9,E190",
          "distance": 595,
          "time": "02:25:00"
        },
        {
          "id": 19803,
          "pair_id": 266484,
          "name": "Glasgow",
          "icao": "EGPF",
          "iata": "GLA",
          "latitude": "55.8718990",
          "longitude": "-4.4330600",
          "callsigns": "DLH",
          "types": "A20N,A21N,A319,A320,A321,CRJ9,E190",
          "distance": 585,
          "time": "02:00:00"
        },
        {
          "id": 11401,
          "pair_id": 128956,
          "name": "Gothenburg Landvetter",
          "icao": "ESGG",
          "iata": "GOT",
          "latitude": "57.6627998",
          "longitude": "12.2798004",
          "callsigns": "DLH",
          "types": "A20N,A21N,A319,A320,A321",
          "distance": 476,
          "time": "01:27:00"
        },
        {
          "id": 11415,
          "pair_id": 129231,
          "name": "Hamburg",
          "icao": "EDDH",
          "iata": "HAM",
          "latitude": "53.6304020",
          "longitude": "9.9882300",
          "callsigns": "DLH",
          "types": "A20N,A21N,A319,A320,A321,CRJ9,E190",
          "distance": 222,
          "time": "01:05:21"
        },
        {
          "id": 11419,
          "pair_id": 128958,
          "name": "Hannover Langenhagen",
          "icao": "EDDV",
          "iata": "HAJ",
          "latitude": "52.4611020",
          "longitude": "9.6850800",
          "callsigns": "DLH",
          "types": "A319,CRJ9,E190,A20N,A21N,A320,A321",
          "distance": 151,
          "time": "00:50:00"
        },
        {
          "id": 11423,
          "pair_id": 128959,
          "name": "Helsinki Vantaa",
          "icao": "EFHK",
          "iata": "HEL",
          "latitude": "60.3172000",
          "longitude": "24.9633010",
          "callsigns": "GEC,DLH",
          "types": "A21F,A20N,A21N,A319,A320,A321",
          "distance": 830,
          "time": "02:22:30"
        },
        {
          "id": 11424,
          "pair_id": 2414888,
          "name": "Heraklion",
          "icao": "LGIR",
          "iata": "HER",
          "latitude": "35.3396990",
          "longitude": "25.1803000",
          "callsigns": "DLH",
          "types": "A20N,A21N,A319,A320,A321",
          "distance": 1141,
          "time": "03:10:00"
        },
        {
          "id": 18272,
          "pair_id": 2514403,
          "name": "Heringsdorf",
          "icao": "EDAH",
          "iata": "HDF",
          "latitude": "53.8787003",
          "longitude": "14.1522999",
          "callsigns": "DLH",
          "types": "A319,CRJ9,E190",
          "distance": 309,
          "time": "01:15:00"
        },
        {
          "id": 11427,
          "pair_id": 1199178,
          "name": "Hong Kong",
          "icao": "VHHH",
          "iata": "HKG",
          "latitude": "22.3089010",
          "longitude": "113.9150010",
          "callsigns": "DLH",
          "types": "A333,A343,A346",
          "distance": 4939,
          "time": "12:40:00"
        },
        {
          "id": 11428,
          "pair_id": 128961,
          "name": "Houston George Bush Intercontinental",
          "icao": "KIAH",
          "iata": "IAH",
          "latitude": "29.9843998",
          "longitude": "-95.3414001",
          "callsigns": "DLH",
          "types": "B744,B748",
          "distance": 4534,
          "time": "11:20:00"
        },
        {
          "id": 15432,
          "pair_id": 2450843,
          "name": "Ibiza Airport",
          "icao": "LEIB",
          "iata": "IBZ",
          "latitude": "38.8728980",
          "longitude": "1.3731200",
          "callsigns": "DLH",
          "types": "A20N,A21N,A319,A320,A321",
          "distance": 736,
          "time": "02:25:00"
        },
        {
          "id": 11430,
          "pair_id": 128962,
          "name": "Istanbul",
          "icao": "LTFM",
          "iata": "IST",
          "latitude": "41.2612970",
          "longitude": "28.7419510",
          "callsigns": "GEC,DLH",
          "types": "A21F,A20N,A21N,A319,A320,A321",
          "distance": 992,
          "time": "03:00:00"
        },
        {
          "id": 11435,
          "pair_id": 128964,
          "name": "Johannesburg OR Tambo",
          "icao": "FAOR",
          "iata": "JNB",
          "latitude": "-26.1392000",
          "longitude": "28.2460000",
          "callsigns": "DLH",
          "types": "B744,B748",
          "distance": 4689,
          "time": "11:45:00"
        },
        {
          "id": 16699,
          "pair_id": 2414892,
          "name": "Jo\u00e3o Paulo II",
          "icao": "LPPD",
          "iata": "PDL",
          "latitude": "37.7411995",
          "longitude": "-25.6979008",
          "callsigns": "DLH",
          "types": "A20N,A21N,A319,A320,A321",
          "distance": 1636,
          "time": "05:00:00"
        },
        {
          "id": 11555,
          "pair_id": 1292046,
          "name": "Kansai\u00a0",
          "icao": "RJBB",
          "iata": "KIX",
          "latitude": "34.4272990",
          "longitude": "135.2440030",
          "callsigns": "GEC",
          "types": "B77L",
          "distance": 4997,
          "time": "12:10:00"
        },
        {
          "id": 11438,
          "pair_id": 2414890,
          "name": "Katowice",
          "icao": "EPKT",
          "iata": "KTW",
          "latitude": "50.4760150",
          "longitude": "19.0807050",
          "callsigns": "DLH",
          "types": "A319,CRJ9,E190",
          "distance": 404,
          "time": "01:30:00"
        },
        {
          "id": 11439,
          "pair_id": 129234,
          "name": "Keflavik",
          "icao": "BIKF",
          "iata": "KEF",
          "latitude": "63.9850010",
          "longitude": "-22.6056000",
          "callsigns": "DLH",
          "types": "A20N,A21N,A319,A320,A321",
          "distance": 1296,
          "time": "03:42:30"
        },
        {
          "id": 11440,
          "pair_id": 129245,
          "name": "Krakow John Paul II",
          "icao": "EPKK",
          "iata": "KRK",
          "latitude": "50.0777020",
          "longitude": "19.7848000",
          "callsigns": "DLH",
          "types": "A20N,A21N,A319,A320,A321,CRJ9,E190",
          "distance": 432,
          "time": "01:32:00"
        },
        {
          "id": 11442,
          "pair_id": 341824,
          "name": "Kuwait",
          "icao": "OKKK",
          "iata": "KWI",
          "latitude": "29.2266010",
          "longitude": "47.9688990",
          "callsigns": "DLH",
          "types": "A333,A343",
          "distance": 2169,
          "time": "05:30:00"
        },
        {
          "id": 11445,
          "pair_id": 341819,
          "name": "Lagos Murtala Mohammed",
          "icao": "DNMM",
          "iata": "LOS",
          "latitude": "6.5773702",
          "longitude": "3.3211601",
          "callsigns": "DLH",
          "types": "A333,A343",
          "distance": 2621,
          "time": "08:20:00"
        },
        {
          "id": 11448,
          "pair_id": 129171,
          "name": "Larnaca",
          "icao": "LCLK",
          "iata": "LCA",
          "latitude": "34.8750990",
          "longitude": "33.6249010",
          "callsigns": "GEC,DLH",
          "types": "A21F,A20N,A21N,A319,A320,A321",
          "distance": 1423,
          "time": "03:41:15"
        },
        {
          "id": 11449,
          "pair_id": 277024,
          "name": "Leipzig Halle",
          "icao": "EDDP",
          "iata": "LEJ",
          "latitude": "51.4206570",
          "longitude": "12.2327050",
          "callsigns": "DLH",
          "types": "A319,CRJ9,E190,A20N,A21N,A320,A321",
          "distance": 162,
          "time": "00:56:00"
        },
        {
          "id": 11452,
          "pair_id": 129252,
          "name": "Lisbon Humberto Delgado",
          "icao": "LPPT",
          "iata": "LIS",
          "latitude": "38.7813000",
          "longitude": "-9.1359200",
          "callsigns": "DLH",
          "types": "A20N,A21N,A319,A320,A321",
          "distance": 1011,
          "time": "03:02:30"
        },
        {
          "id": 11453,
          "pair_id": 129253,
          "name": "Ljubljana Joze Pucnik",
          "icao": "LJLJ",
          "iata": "LJU",
          "latitude": "46.2237010",
          "longitude": "14.4576000",
          "callsigns": "DLH",
          "types": "A319,CRJ9,E190,A20N,A21N,A320,A321",
          "distance": 328,
          "time": "01:13:20"
        },
        {
          "id": 11454,
          "pair_id": 129250,
          "name": "London Heathrow",
          "icao": "EGLL",
          "iata": "LHR",
          "latitude": "51.4706000",
          "longitude": "-0.4619410",
          "callsigns": "DLH",
          "types": "A20N,A21N,A319,A320,A321,CRJ9,E190",
          "distance": 353,
          "time": "01:42:55"
        },
        {
          "id": 11455,
          "pair_id": 129224,
          "name": "Los Angeles",
          "icao": "KLAX",
          "iata": "LAX",
          "latitude": "33.9425010",
          "longitude": "-118.4079970",
          "callsigns": "DLH",
          "types": "B744,B748,A343,A346",
          "distance": 5030,
          "time": "11:50:00"
        },
        {
          "id": 11456,
          "pair_id": 129247,
          "name": "Luanda Quatro de Fevereiro",
          "icao": "FNLU",
          "iata": "LAD",
          "latitude": "-8.8583700",
          "longitude": "13.2312000",
          "callsigns": "DLH",
          "types": "A333,A343",
          "distance": 3542,
          "time": "10:20:00"
        },
        {
          "id": 11458,
          "pair_id": 131829,
          "name": "Luqa Malta",
          "icao": "LMML",
          "iata": "MLA",
          "latitude": "35.8574980",
          "longitude": "14.4775000",
          "callsigns": "GEC,DLH",
          "types": "A21F,A20N,A21N,A319,A320,A321",
          "distance": 889,
          "time": "02:31:00"
        },
        {
          "id": 11459,
          "pair_id": 129256,
          "name": "Luxembourg Findel",
          "icao": "ELLX",
          "iata": "LUX",
          "latitude": "49.6233333",
          "longitude": "6.2044444",
          "callsigns": "DLH",
          "types": "A319,CRJ9,E190",
          "distance": 95,
          "time": "00:45:00"
        },
        {
          "id": 11460,
          "pair_id": 128966,
          "name": "Lyon Saint Exupery",
          "icao": "LFLL",
          "iata": "LYS",
          "latitude": "45.7255560",
          "longitude": "5.0811110",
          "callsigns": "DLH",
          "types": "A20N,A21N,A319,A320,A321,E190",
          "distance": 294,
          "time": "01:15:00"
        },
        {
          "id": 11461,
          "pair_id": 129290,
          "name": "Madrid Barajas",
          "icao": "LEMD",
          "iata": "MAD",
          "latitude": "40.4719260",
          "longitude": "-3.5626400",
          "callsigns": "GEC,DLH",
          "types": "A21F,A20N,A21N,A319,A320,A321,CRJ9,E190",
          "distance": 767,
          "time": "02:37:00"
        },
        {
          "id": 11463,
          "pair_id": 128916,
          "name": "Malaga Costa Del Sol",
          "icao": "LEMG",
          "iata": "AGP",
          "latitude": "36.6749000",
          "longitude": "-4.4991100",
          "callsigns": "DLH",
          "types": "A20N,A21N,A319,A320,A321,CRJ9,E190",
          "distance": 980,
          "time": "03:00:00"
        },
        {
          "id": 11465,
          "pair_id": 128969,
          "name": "Manchester",
          "icao": "EGCC",
          "iata": "MAN",
          "latitude": "53.3493750",
          "longitude": "-2.2795210",
          "callsigns": "DLH",
          "types": "A20N,A21N,A319,A320,A321,CRJ9",
          "distance": 449,
          "time": "01:42:30"
        },
        {
          "id": 16694,
          "pair_id": 219304,
          "name": "Marseille Provence",
          "icao": "LFML",
          "iata": "MRS",
          "latitude": "43.4380880",
          "longitude": "5.2125000",
          "callsigns": "DLH",
          "types": "A20N,A21N,A319,A320,A321,CRJ9,E190",
          "distance": 419,
          "time": "01:31:40"
        },
        {
          "id": 11507,
          "pair_id": 128970,
          "name": "Mexico City",
          "icao": "MMMX",
          "iata": "MEX",
          "latitude": "19.4354330",
          "longitude": "-99.0824320",
          "callsigns": "DLH",
          "types": "B744,B748",
          "distance": 5154,
          "time": "12:00:00"
        },
        {
          "id": 11508,
          "pair_id": 128971,
          "name": "Miami",
          "icao": "KMIA",
          "iata": "MIA",
          "latitude": "25.7931995",
          "longitude": "-80.2906036",
          "callsigns": "DLH",
          "types": "B744,B748",
          "distance": 4189,
          "time": "10:00:00"
        },
        {
          "id": 11509,
          "pair_id": 129251,
          "name": "Milan Linate",
          "icao": "LIML",
          "iata": "LIN",
          "latitude": "45.4450990",
          "longitude": "9.2767400",
          "callsigns": "DLH",
          "types": "A20N,A21N,A319,A320,A321,CRJ9,E190",
          "distance": 277,
          "time": "01:10:00"
        },
        {
          "id": 11510,
          "pair_id": 206952,
          "name": "Milan Malpensa",
          "icao": "LIMC",
          "iata": "MXP",
          "latitude": "45.6306000",
          "longitude": "8.7281100",
          "callsigns": "DLH",
          "types": "A319,CRJ9,A20N,A21N,A320,A321",
          "distance": 264,
          "time": "01:12:30"
        },
        {
          "id": 179530,
          "pair_id": 2594941,
          "name": "Minneapolis",
          "icao": "KMSP",
          "iata": "MSP",
          "latitude": "44.8820000",
          "longitude": "-93.2218020",
          "callsigns": "DLH",
          "types": "B789",
          "distance": 3803,
          "time": "08:55:00"
        },
        {
          "id": 74249,
          "pair_id": 1081613,
          "name": "Mohammed V International Airport",
          "icao": "GMMN",
          "iata": "CMN",
          "latitude": "33.3675000",
          "longitude": "-7.5899700",
          "callsigns": "DLH",
          "types": "A20N,A21N,A319,A320,A321",
          "distance": 1229,
          "time": "03:30:00"
        },
        {
          "id": 16695,
          "pair_id": 2414882,
          "name": "Montr\u00e9al\u2013Trudeau",
          "icao": "CYUL",
          "iata": "YUL",
          "latitude": "45.4706000",
          "longitude": "-73.7407990",
          "callsigns": "DLH",
          "types": "B789",
          "distance": 3159,
          "time": "07:45:00"
        },
        {
          "id": 11514,
          "pair_id": 128934,
          "name": "Mumbai Chhatrapati Shivaji",
          "icao": "VABB",
          "iata": "BOM",
          "latitude": "19.0886993",
          "longitude": "72.8678970",
          "callsigns": "DLH,GEC",
          "types": "B744,B748,B77L",
          "distance": 3547,
          "time": "08:07:30"
        },
        {
          "id": 11518,
          "pair_id": 182459,
          "name": "Munich",
          "icao": "EDDM",
          "iata": "MUC",
          "latitude": "48.3538020",
          "longitude": "11.7861000",
          "callsigns": "DLH",
          "types": "A20N,A21N,A319,A320,A321,B789",
          "distance": 161,
          "time": "00:55:00"
        },
        {
          "id": 11515,
          "pair_id": 1488961,
          "name": "Munster Osnabruck",
          "icao": "EDDG",
          "iata": "FMO",
          "latitude": "52.1346020",
          "longitude": "7.6848300",
          "callsigns": "DLH",
          "types": "A319,CRJ9,E190",
          "distance": 130,
          "time": "00:50:00"
        },
        {
          "id": 11516,
          "pair_id": 128976,
          "name": "Nairobi Jomo Kenyatta",
          "icao": "HKJK",
          "iata": "NBO",
          "latitude": "-1.3192400",
          "longitude": "36.9277992",
          "callsigns": "DLH",
          "types": "A333,A343",
          "distance": 3408,
          "time": "09:05:00"
        },
        {
          "id": 11417,
          "pair_id": 219375,
          "name": "Nantes Atlantique",
          "icao": "LFRS",
          "iata": "NTE",
          "latitude": "47.1531982",
          "longitude": "-1.6107301",
          "callsigns": "DLH",
          "types": "A319,CRJ9,E190",
          "distance": 439,
          "time": "01:40:00"
        },
        {
          "id": 11414,
          "pair_id": 128975,
          "name": "Naples",
          "icao": "LIRN",
          "iata": "NAP",
          "latitude": "40.8860020",
          "longitude": "14.2908000",
          "callsigns": "DLH",
          "types": "A20N,A21N,A319,A320,A321",
          "distance": 599,
          "time": "01:58:20"
        },
        {
          "id": 11413,
          "pair_id": 128963,
          "name": "New York John F. Kennedy",
          "icao": "KJFK",
          "iata": "JFK",
          "latitude": "40.6394470",
          "longitude": "-73.7793170",
          "callsigns": "DLH,GEC",
          "types": "B744,B748,A333,A343,B77L",
          "distance": 3340,
          "time": "08:38:00"
        },
        {
          "id": 11412,
          "pair_id": 129149,
          "name": "New York Newark Liberty",
          "icao": "KEWR",
          "iata": "EWR",
          "latitude": "40.6925010",
          "longitude": "-74.1687010",
          "callsigns": "DLH",
          "types": "B744,B748",
          "distance": 3351,
          "time": "08:50:00"
        },
        {
          "id": 16697,
          "pair_id": 1004223,
          "name": "Newcastle",
          "icao": "EGNT",
          "iata": "NCL",
          "latitude": "55.0379580",
          "longitude": "-1.6895770",
          "callsigns": "DLH",
          "types": "A319,A320,CRJ9,E190",
          "distance": 479,
          "time": "01:47:30"
        },
        {
          "id": 11411,
          "pair_id": 128977,
          "name": "Nice Cote d'Azur",
          "icao": "LFMN",
          "iata": "NCE",
          "latitude": "43.6584010",
          "longitude": "7.2158700",
          "callsigns": "DLH",
          "types": "A20N,A21N,A319,A320,A321,CRJ9,E190",
          "distance": 387,
          "time": "01:30:00"
        },
        {
          "id": 11409,
          "pair_id": 239229,
          "name": "Nuremberg",
          "icao": "EDDN",
          "iata": "NUE",
          "latitude": "49.4986990",
          "longitude": "11.0780560",
          "callsigns": "DLH",
          "types": "A20N,A21N,A319,A320,A321,CRJ9,E190",
          "distance": 103,
          "time": "00:41:00"
        },
        {
          "id": 16827,
          "pair_id": 2572784,
          "name": "Nursultan Nazarbayev",
          "icao": "UACC",
          "iata": "NQZ",
          "latitude": "51.0222020",
          "longitude": "71.4669040",
          "callsigns": "DLH",
          "types": "A333,A343,A346",
          "distance": 2325,
          "time": "06:45:00"
        },
        {
          "id": 15660,
          "pair_id": 2390299,
          "name": "Olbia Costa Smeralda Airport",
          "icao": "LIEO",
          "iata": "OLB",
          "latitude": "40.8987010",
          "longitude": "9.5176300",
          "callsigns": "DLH",
          "types": "A20N,A21N,A319,A320,A321",
          "distance": 550,
          "time": "01:45:00"
        },
        {
          "id": 11408,
          "pair_id": 129186,
          "name": "Oslo Gardermoen",
          "icao": "ENGM",
          "iata": "OSL",
          "latitude": "60.1939010",
          "longitude": "11.1004000",
          "callsigns": "DLH",
          "types": "A20N,A21N,A319,A320,A321",
          "distance": 616,
          "time": "01:58:00"
        },
        {
          "id": 11405,
          "pair_id": 2313242,
          "name": "Palermo Falcone-Borsellino",
          "icao": "LICJ",
          "iata": "PMO",
          "latitude": "38.1759990",
          "longitude": "13.0910000",
          "callsigns": "DLH",
          "types": "A20N,A21N,A319,A320,A321,CRJ9,E190",
          "distance": 738,
          "time": "02:20:00"
        },
        {
          "id": 11404,
          "pair_id": 2325407,
          "name": "Palma de Mallorca",
          "icao": "LEPA",
          "iata": "PMI",
          "latitude": "39.5517010",
          "longitude": "2.7388100",
          "callsigns": "DLH",
          "types": "A20N,A21N,A319,A320,A321",
          "distance": 676,
          "time": "02:10:00"
        },
        {
          "id": 11403,
          "pair_id": 128938,
          "name": "Paris Charles de Gaulle",
          "icao": "LFPG",
          "iata": "CDG",
          "latitude": "49.0127980",
          "longitude": "2.5500000",
          "callsigns": "DLH",
          "types": "A20N,A21N,A319,A320,A321,CRJ9,E190",
          "distance": 242,
          "time": "01:15:00"
        },
        {
          "id": 11400,
          "pair_id": 129181,
          "name": "Porto Francisco de Sa Carneiro",
          "icao": "LPPR",
          "iata": "OPO",
          "latitude": "41.2481003",
          "longitude": "-8.6813898",
          "callsigns": "DLH",
          "types": "A20N,A21N,A319,A320,A321",
          "distance": 892,
          "time": "02:43:20"
        },
        {
          "id": 11399,
          "pair_id": 129236,
          "name": "Poznan Lawica",
          "icao": "EPPO",
          "iata": "POZ",
          "latitude": "52.4210010",
          "longitude": "16.8263000",
          "callsigns": "DLH",
          "types": "A319,CRJ9,E190",
          "distance": 341,
          "time": "01:16:40"
        },
        {
          "id": 11398,
          "pair_id": 128978,
          "name": "Prague Vaclav Havel",
          "icao": "LKPR",
          "iata": "PRG",
          "latitude": "50.1035140",
          "longitude": "14.2569920",
          "callsigns": "DLH",
          "types": "A20N,A21N,A319,A320,A321,CRJ9,E190",
          "distance": 219,
          "time": "01:01:00"
        },
        {
          "id": 16826,
          "pair_id": 2616719,
          "name": "Pula",
          "icao": "LDPL",
          "iata": "PUY",
          "latitude": "44.8935013",
          "longitude": "13.9222002",
          "callsigns": "DLH",
          "types": "A319,CRJ9,E190",
          "distance": 377,
          "time": "01:25:00"
        },
        {
          "id": 11561,
          "pair_id": 2226081,
          "name": "Rajiv Gandhi",
          "icao": "VOHS",
          "iata": "HYD",
          "latitude": "17.2313180",
          "longitude": "78.4298550",
          "callsigns": "DLH",
          "types": "B789",
          "distance": 3841,
          "time": "08:30:00"
        },
        {
          "id": 179556,
          "pair_id": 2604455,
          "name": "Raleigh\u2013Durham",
          "icao": "KRDU",
          "iata": "RDU",
          "latitude": "35.8776020",
          "longitude": "-78.7874980",
          "callsigns": "DLH",
          "types": "A333",
          "distance": 3705,
          "time": "09:30:00"
        },
        {
          "id": 76911,
          "pair_id": 2514408,
          "name": "Rennes Bretagne Airport",
          "icao": "LFRN",
          "iata": "RNS",
          "latitude": "48.0695000",
          "longitude": "-1.7347900",
          "callsigns": "DLH",
          "types": "A319,CRJ9,E190",
          "distance": 421,
          "time": "01:30:00"
        },
        {
          "id": 15431,
          "pair_id": 2450841,
          "name": "Rhodes International Airport",
          "icao": "LGRP",
          "iata": "RHO",
          "latitude": "36.4053990",
          "longitude": "28.0862010",
          "callsigns": "DLH",
          "types": "A20N,A21N,A319,A320,A321",
          "distance": 1175,
          "time": "03:10:00"
        },
        {
          "id": 11392,
          "pair_id": 128981,
          "name": "Riga",
          "icao": "EVRA",
          "iata": "RIX",
          "latitude": "56.9235990",
          "longitude": "23.9711000",
          "callsigns": "DLH",
          "types": "A20N,A21N,A319,A320,A321,CRJ9,E190",
          "distance": 685,
          "time": "02:05:00"
        },
        {
          "id": 18275,
          "pair_id": 2514412,
          "name": "Rijeka",
          "icao": "LDRI",
          "iata": "RJK",
          "latitude": "45.2168999",
          "longitude": "14.5703001",
          "callsigns": "DLH",
          "types": "A20N,A21N,A319,A320,A321",
          "distance": 377,
          "time": "01:20:00"
        },
        {
          "id": 48153,
          "pair_id": 2089026,
          "name": "Rio de Janeiro Airport",
          "icao": "SBGL",
          "iata": "GIG",
          "latitude": "-22.8099990",
          "longitude": "-43.2505570",
          "callsigns": "DLH",
          "types": "A333,A343",
          "distance": 5163,
          "time": "11:25:00"
        },
        {
          "id": 11391,
          "pair_id": 128982,
          "name": "Riyadh King Khalid",
          "icao": "OERK",
          "iata": "RUH",
          "latitude": "24.9576000",
          "longitude": "46.6987990",
          "callsigns": "DLH,GEC",
          "types": "A333,A343,B77L",
          "distance": 2316,
          "time": "05:55:00"
        },
        {
          "id": 11389,
          "pair_id": 129227,
          "name": "Rome Leonardo da Vinci Fiumicino",
          "icao": "LIRF",
          "iata": "FCO",
          "latitude": "41.8045320",
          "longitude": "12.2519980",
          "callsigns": "DLH",
          "types": "A20N,A21N,A319,A320,A321",
          "distance": 517,
          "time": "01:50:00"
        },
        {
          "id": 11387,
          "pair_id": 239239,
          "name": "Salzburg",
          "icao": "LOWS",
          "iata": "SZG",
          "latitude": "47.7933010",
          "longitude": "13.0043000",
          "callsigns": "DLH",
          "types": "A20N,A21N,A319,A320,A321,CRJ9,E190",
          "distance": 220,
          "time": "01:00:00"
        },
        {
          "id": 11386,
          "pair_id": 129188,
          "name": "San Francisco",
          "icao": "KSFO",
          "iata": "SFO",
          "latitude": "37.6189995",
          "longitude": "-122.3750000",
          "callsigns": "DLH",
          "types": "B744,B748",
          "distance": 4936,
          "time": "11:20:00"
        },
        {
          "id": 11385,
          "pair_id": 128986,
          "name": "San Jose Juan Santamaria",
          "icao": "MROC",
          "iata": "SJO",
          "latitude": "9.9938600",
          "longitude": "-84.2088010",
          "callsigns": "DLH",
          "types": "A333,A343",
          "distance": 5047,
          "time": "12:10:00"
        },
        {
          "id": 18259,
          "pair_id": 2390303,
          "name": "Santiago de Compostela",
          "icao": "LEST",
          "iata": "SCQ",
          "latitude": "42.8963010",
          "longitude": "-8.4151400",
          "callsigns": "DLH",
          "types": "A20N,A21N,A319,A320,A321",
          "distance": 819,
          "time": "02:35:00"
        },
        {
          "id": 11382,
          "pair_id": 152420,
          "name": "Sao Paulo Guarulhos",
          "icao": "SBGR",
          "iata": "GRU",
          "latitude": "-23.4319440",
          "longitude": "-46.4677780",
          "callsigns": "DLH,GEC",
          "types": "B744,B748,B77L",
          "distance": 5287,
          "time": "11:50:00"
        },
        {
          "id": 11381,
          "pair_id": 219381,
          "name": "Sarajevo",
          "icao": "LQSA",
          "iata": "SJJ",
          "latitude": "43.8246000",
          "longitude": "18.3314990",
          "callsigns": "DLH",
          "types": "A20N,A21N,A319,A320,A321",
          "distance": 546,
          "time": "01:45:00"
        },
        {
          "id": 11380,
          "pair_id": 319347,
          "name": "Seattle Tacoma",
          "icao": "KSEA",
          "iata": "SEA",
          "latitude": "47.4491620",
          "longitude": "-122.3111340",
          "callsigns": "DLH",
          "types": "A333,A343",
          "distance": 4423,
          "time": "10:10:00"
        },
        {
          "id": 11378,
          "pair_id": 319549,
          "name": "Seoul Incheon",
          "icao": "RKSI",
          "iata": "ICN",
          "latitude": "37.4691010",
          "longitude": "126.4509964",
          "callsigns": "DLH,GEC",
          "types": "B744,B748,B77L",
          "distance": 4610,
          "time": "10:45:00"
        },
        {
          "id": 11377,
          "pair_id": 128992,
          "name": "Seville San Pablo",
          "icao": "LEZL",
          "iata": "SVQ",
          "latitude": "37.4179990",
          "longitude": "-5.8931100",
          "callsigns": "DLH",
          "types": "A20N,A21N,A319,A320,A321",
          "distance": 979,
          "time": "02:50:00"
        },
        {
          "id": 11375,
          "pair_id": 2085325,
          "name": "Shanghai Pudong",
          "icao": "ZSPD",
          "iata": "PVG",
          "latitude": "31.1434000",
          "longitude": "121.8050000",
          "callsigns": "DLH,GEC",
          "types": "B744,B748,A343,A346,B77L",
          "distance": 4780,
          "time": "11:58:20"
        },
        {
          "id": 11369,
          "pair_id": 128985,
          "name": "Singapore Changi",
          "icao": "WSSS",
          "iata": "SIN",
          "latitude": "1.3501900",
          "longitude": "103.9940030",
          "callsigns": "DLH",
          "types": "B744,B748",
          "distance": 5546,
          "time": "12:50:00"
        },
        {
          "id": 105236,
          "pair_id": 1759520,
          "name": "Skopje International Airport",
          "icao": "LWSK",
          "iata": "SKP",
          "latitude": "41.9580870",
          "longitude": "21.6225810",
          "callsigns": "DLH",
          "types": "A20N,A21N,A319,A320,A321,CRJ9",
          "distance": 727,
          "time": "02:15:00"
        },
        {
          "id": 11368,
          "pair_id": 128988,
          "name": "Sofia",
          "icao": "LBSF",
          "iata": "SOF",
          "latitude": "42.6963570",
          "longitude": "23.4176710",
          "callsigns": "DLH",
          "types": "A20N,A21N,A319,A320,A321,CRJ9",
          "distance": 754,
          "time": "02:12:30"
        },
        {
          "id": 78562,
          "pair_id": 1199172,
          "name": "St. Louis Lambert International Airport",
          "icao": "KSTL",
          "iata": "STL",
          "latitude": "38.7486970",
          "longitude": "-90.3700030",
          "callsigns": "DLH",
          "types": "A333,A343",
          "distance": 3978,
          "time": "10:00:00"
        },
        {
          "id": 11559,
          "pair_id": 1149295,
          "name": "Stavanger\u00a0",
          "icao": "ENZV",
          "iata": "SVG",
          "latitude": "58.8767010",
          "longitude": "5.6377800",
          "callsigns": "GEC,DLH",
          "types": "A21F,A20N,A21N,A319,A320,A321,CRJ9,E190",
          "distance": 540,
          "time": "01:45:00"
        },
        {
          "id": 11364,
          "pair_id": 129244,
          "name": "Stockholm Arlanda",
          "icao": "ESSA",
          "iata": "ARN",
          "latitude": "59.6519012",
          "longitude": "17.9186001",
          "callsigns": "GEC,DLH",
          "types": "A21F,A20N,A21N,A319,A320,A321,CRJ9,E190",
          "distance": 660,
          "time": "02:06:26"
        },
        {
          "id": 11362,
          "pair_id": 128991,
          "name": "Stuttgart",
          "icao": "EDDS",
          "iata": "STR",
          "latitude": "48.6898990",
          "longitude": "9.2219600",
          "callsigns": "DLH",
          "types": "A20N,A21N,A319,A320,A321,CRJ9,E190",
          "distance": 85,
          "time": "00:40:00"
        },
        {
          "id": 11360,
          "pair_id": 2414878,
          "name": "Sylt",
          "icao": "EDXW",
          "iata": "GWT",
          "latitude": "54.9132000",
          "longitude": "8.3404700",
          "callsigns": "DLH",
          "types": "A319,CRJ9,E190",
          "distance": 293,
          "time": "01:15:00"
        },
        {
          "id": 11358,
          "pair_id": 129220,
          "name": "Tallinn Lennart Meri",
          "icao": "EETN",
          "iata": "TLL",
          "latitude": "59.4132996",
          "longitude": "24.8327999",
          "callsigns": "DLH",
          "types": "A20N,A21N,A319,A320,A321,CRJ9,E190",
          "distance": 792,
          "time": "02:18:20"
        },
        {
          "id": 11560,
          "pair_id": 1083571,
          "name": "Tashkent\u00a0",
          "icao": "UTTT",
          "iata": "TAS",
          "latitude": "41.2579002",
          "longitude": "69.2811966",
          "callsigns": "GEC",
          "types": "B77L",
          "distance": 2528,
          "time": "06:30:00"
        },
        {
          "id": 11548,
          "pair_id": 2634277,
          "name": "Teheran-Imam Chomeini",
          "icao": "OIIE",
          "iata": "IKA",
          "latitude": "35.4160995",
          "longitude": "51.1521988",
          "callsigns": "DLH",
          "types": "A343,A346",
          "distance": 2037,
          "time": "05:00:00"
        },
        {
          "id": 11354,
          "pair_id": 2499144,
          "name": "Tel Aviv Ben Gurion",
          "icao": "LLBG",
          "iata": "TLV",
          "latitude": "32.0113980",
          "longitude": "34.8867000",
          "callsigns": "GEC,DLH",
          "types": "A21F,A20N,A21N,A319,A320,A321",
          "distance": 1594,
          "time": "04:07:30"
        },
        {
          "id": 11351,
          "pair_id": 2414896,
          "name": "Thessaloniki",
          "icao": "LGTS",
          "iata": "SKG",
          "latitude": "40.5192800",
          "longitude": "22.9700090",
          "callsigns": "DLH",
          "types": "A20N,A21N,A319,A320,A321",
          "distance": 832,
          "time": "02:25:00"
        },
        {
          "id": 11347,
          "pair_id": 129190,
          "name": "Tirana",
          "icao": "LATI",
          "iata": "TIA",
          "latitude": "41.4147000",
          "longitude": "19.7206000",
          "callsigns": "DLH",
          "types": "A20N,A21N,A319,A320,A321",
          "distance": 696,
          "time": "02:05:00"
        },
        {
          "id": 18276,
          "pair_id": 2514414,
          "name": "Tivat",
          "icao": "LYTV",
          "iata": "TIV",
          "latitude": "42.4047012",
          "longitude": "18.7233009",
          "callsigns": "DLH",
          "types": "A20N,A21N,A319,A320,A321",
          "distance": 621,
          "time": "01:55:00"
        },
        {
          "id": 11346,
          "pair_id": 129233,
          "name": "Tokyo Haneda",
          "icao": "RJTT",
          "iata": "HND",
          "latitude": "35.5522990",
          "longitude": "139.7799990",
          "callsigns": "DLH",
          "types": "B744,B748",
          "distance": 5051,
          "time": "11:00:00"
        },
        {
          "id": 11554,
          "pair_id": 129178,
          "name": "Tokyo-Narita",
          "icao": "RJAA",
          "iata": "NRT",
          "latitude": "35.7647020",
          "longitude": "140.3860020",
          "callsigns": "GEC",
          "types": "B77L",
          "distance": 5054,
          "time": "12:30:00"
        },
        {
          "id": 11344,
          "pair_id": 1714498,
          "name": "Toronto Pearson",
          "icao": "CYYZ",
          "iata": "YYZ",
          "latitude": "43.6772000",
          "longitude": "-79.6306000",
          "callsigns": "DLH",
          "types": "B744,B748",
          "distance": 3423,
          "time": "08:15:00"
        },
        {
          "id": 11343,
          "pair_id": 239241,
          "name": "Toulouse Blagnac",
          "icao": "LFBO",
          "iata": "TLS",
          "latitude": "43.6291010",
          "longitude": "1.3638200",
          "callsigns": "DLH",
          "types": "A20N,A21N,A319,A320,A321",
          "distance": 484,
          "time": "01:43:45"
        },
        {
          "id": 11340,
          "pair_id": 239251,
          "name": "Tromso",
          "icao": "ENTC",
          "iata": "TOS",
          "latitude": "69.6832960",
          "longitude": "18.9189000",
          "callsigns": "DLH",
          "types": "A20N,A21N,A319,A320,A321",
          "distance": 1215,
          "time": "03:25:00"
        },
        {
          "id": 11339,
          "pair_id": 129192,
          "name": "Tunis Carthage",
          "icao": "DTTA",
          "iata": "TUN",
          "latitude": "36.8510020",
          "longitude": "10.2272000",
          "callsigns": "DLH",
          "types": "A20N,A21N,A319,A320,A321,CRJ9,E190",
          "distance": 794,
          "time": "02:20:00"
        },
        {
          "id": 11337,
          "pair_id": 128997,
          "name": "Valencia",
          "icao": "LEVC",
          "iata": "VLC",
          "latitude": "39.4893000",
          "longitude": "-0.4816250",
          "callsigns": "DLH",
          "types": "A20N,A21N,A319,A320,A321,CRJ9",
          "distance": 740,
          "time": "02:20:00"
        },
        {
          "id": 11335,
          "pair_id": 1714483,
          "name": "Vancouver",
          "icao": "CYVR",
          "iata": "YVR",
          "latitude": "49.1939011",
          "longitude": "-123.1839981",
          "callsigns": "DLH",
          "types": "B744,B748",
          "distance": 4350,
          "time": "09:55:00"
        },
        {
          "id": 11334,
          "pair_id": 128994,
          "name": "Venice Marco Polo",
          "icao": "LIPZ",
          "iata": "VCE",
          "latitude": "45.5052990",
          "longitude": "12.3519000",
          "callsigns": "DLH",
          "types": "A20N,A21N,A319,A320,A321",
          "distance": 311,
          "time": "01:19:00"
        },
        {
          "id": 11331,
          "pair_id": 128996,
          "name": "Vienna",
          "icao": "LOWW",
          "iata": "VIE",
          "latitude": "48.1102980",
          "longitude": "16.5697000",
          "callsigns": "DLH",
          "types": "A20N,A21N,A319,A320,A321,CRJ9",
          "distance": 335,
          "time": "01:20:00"
        },
        {
          "id": 11330,
          "pair_id": 128998,
          "name": "Vilnius",
          "icao": "EYVI",
          "iata": "VNO",
          "latitude": "54.6341020",
          "longitude": "25.2858010",
          "callsigns": "DLH",
          "types": "A20N,A21N,A319,A320,A321",
          "distance": 670,
          "time": "02:01:40"
        },
        {
          "id": 11557,
          "pair_id": 319488,
          "name": "Viracopos \u2013 Campinas",
          "icao": "SBKP",
          "iata": "VCP",
          "latitude": "-23.0074040",
          "longitude": "-47.1345020",
          "callsigns": "GEC",
          "types": "B77L",
          "distance": 5284,
          "time": "12:00:00"
        },
        {
          "id": 11328,
          "pair_id": 128999,
          "name": "Warsaw Chopin",
          "icao": "EPWA",
          "iata": "WAW",
          "latitude": "52.1656990",
          "longitude": "20.9671001",
          "callsigns": "DLH",
          "types": "A20N,A21N,A319,A320,A321,CRJ9,E190",
          "distance": 484,
          "time": "01:35:00"
        },
        {
          "id": 11327,
          "pair_id": 129289,
          "name": "Washington Dulles",
          "icao": "KIAD",
          "iata": "IAD",
          "latitude": "38.9445000",
          "longitude": "-77.4558030",
          "callsigns": "DLH",
          "types": "B744,B748,A343,A346",
          "distance": 3534,
          "time": "08:55:00"
        },
        {
          "id": 11323,
          "pair_id": 129000,
          "name": "Wroclaw Copernicus",
          "icao": "EPWR",
          "iata": "WRO",
          "latitude": "51.1037190",
          "longitude": "16.8820960",
          "callsigns": "DLH",
          "types": "A319,CRJ9,E190",
          "distance": 323,
          "time": "01:11:40"
        },
        {
          "id": 21562,
          "pair_id": 1818981,
          "name": "Yerevan",
          "icao": "UDYZ",
          "iata": "EVN",
          "latitude": "40.1473007",
          "longitude": "44.3959007",
          "callsigns": "GEC,DLH",
          "types": "A21F,A20N,A21N,A319,A320,A321",
          "distance": 1611,
          "time": "04:05:00"
        },
        {
          "id": 11315,
          "pair_id": 206939,
          "name": "Zagreb Franjo Tudman",
          "icao": "LDZA",
          "iata": "ZAG",
          "latitude": "45.7429010",
          "longitude": "16.0688000",
          "callsigns": "DLH",
          "types": "A20N,A21N,A319,A320,A321",
          "distance": 397,
          "time": "01:22:30"
        },
        {
          "id": 178380,
          "pair_id": 2563445,
          "name": "Zhengzhou",
          "icao": "ZHCC",
          "iata": "CGO",
          "latitude": "34.5264970",
          "longitude": "113.8491650",
          "callsigns": "GEC",
          "types": "B77L",
          "distance": 4371,
          "time": "11:00:00"
        },
        {
          "id": 11312,
          "pair_id": 129003,
          "name": "Zurich",
          "icao": "LSZH",
          "iata": "ZRH",
          "latitude": "47.4580560",
          "longitude": "8.5480560",
          "callsigns": "DLH",
          "types": "A20N,A21N,A319,A320,A321,CRJ9,E190",
          "distance": 154,
          "time": "00:53:20"
        }
      ],
      "aircrafts": [
        "A20N",
        "A21N",
        "A319",
        "A320",
        "A321",
        "CRJ9",
        "E190",
        "A20N",
        "A21N",
        "A319",
        "A320",
        "A321",
        "A20N",
        "A21N",
        "A319",
        "A320",
        "A321",
        "CRJ9",
        "B77L",
        "B744",
        "B748",
        "A343",
        "A346",
        "A319",
        "CRJ9",
        "E190",
        "A333",
        "A343",
        "A319",
        "CRJ9",
        "A21F",
        "A20N",
        "A21N",
        "A319",
        "A320",
        "A321",
        "E190",
        "A20N",
        "A21N",
        "A319",
        "A320",
        "A321",
        "B789",
        "A333",
        "A343",
        "A346",
        "A346",
        "B744",
        "B748",
        "A319",
        "A320",
        "CRJ9",
        "E190",
        "B789",
        "A333",
        "A343",
        "B789",
        "A333"
      ]
    },
    {
      "id": 11265,
      "name": "Abuja Nnamdi Azikiwe",
      "icao": "DNAA",
      "iata": "ABV",
      "base": false,
      "latitude": "9.0067900",
      "longitude": "7.2631700",
      "destinations": [
        {
          "id": 11202,
          "pair_id": 354671,
          "name": "Frankfurt-Main",
          "icao": "EDDF",
          "iata": "FRA",
          "latitude": "50.0365210",
          "longitude": "8.5612680",
          "callsigns": "DLH",
          "types": "A333,A343",
          "distance": 2462,
          "time": "08:50:00"
        },
        {
          "id": 11402,
          "pair_id": 2259384,
          "name": "Port Harcourt",
          "icao": "DNPO",
          "iata": "PHC",
          "latitude": "5.0154901",
          "longitude": "6.9495902",
          "callsigns": "DLH",
          "types": "A333,A343",
          "distance": 240,
          "time": "01:10:00"
        }
      ],
      "aircrafts": [
        "A333",
        "A343"
      ]
    },
    {
      "id": 11266,
      "name": "Algiers Houari Boumediene",
      "icao": "DAAG",
      "iata": "ALG",
      "base": false,
      "latitude": "36.6938860",
      "longitude": "3.2145310",
      "destinations": [
        {
          "id": 11202,
          "pair_id": 253339,
          "name": "Frankfurt-Main",
          "icao": "EDDF",
          "iata": "FRA",
          "latitude": "50.0365210",
          "longitude": "8.5612680",
          "callsigns": "DLH",
          "types": "A20N,A21N,A319,A320,A321",
          "distance": 833,
          "time": "02:35:00"
        }
      ],
      "aircrafts": [
        "A20N",
        "A21N",
        "A319",
        "A320",
        "A321"
      ]
    },
    {
      "id": 11267,
      "name": "Alicante",
      "icao": "LEAL",
      "iata": "ALC",
      "base": false,
      "latitude": "38.2822000",
      "longitude": "-0.5581560",
      "destinations": [
        {
          "id": 11202,
          "pair_id": 838008,
          "name": "Frankfurt-Main",
          "icao": "EDDF",
          "iata": "FRA",
          "latitude": "50.0365210",
          "longitude": "8.5612680",
          "callsigns": "DLH",
          "types": "A20N,A21N,A319,A320,A321",
          "distance": 806,
          "time": "02:40:00"
        },
        {
          "id": 11518,
          "pair_id": 2331853,
          "name": "Munich",
          "icao": "EDDM",
          "iata": "MUC",
          "latitude": "48.3538020",
          "longitude": "11.7861000",
          "callsigns": "DLH",
          "types": "A20N,A21N,A319,A320,A321",
          "distance": 808,
          "time": "02:35:00"
        }
      ],
      "aircrafts": [
        "A20N",
        "A21N",
        "A319",
        "A320",
        "A321"
      ]
    },
    {
      "id": 11268,
      "name": "Amman Queen Alia",
      "icao": "OJAI",
      "iata": "AMM",
      "base": false,
      "latitude": "31.7226009",
      "longitude": "35.9931984",
      "destinations": [
        {
          "id": 11202,
          "pair_id": 2499152,
          "name": "Frankfurt-Main",
          "icao": "EDDF",
          "iata": "FRA",
          "latitude": "50.0365210",
          "longitude": "8.5612680",
          "callsigns": "DLH",
          "types": "A20N,A21N,A319,A320,A321",
          "distance": 1643,
          "time": "04:45:00"
        }
      ],
      "aircrafts": [
        "A20N",
        "A21N",
        "A319",
        "A320",
        "A321"
      ]
    },
    {
      "id": 11269,
      "name": "Amsterdam Schiphol",
      "icao": "EHAM",
      "iata": "AMS",
      "base": false,
      "latitude": "52.3086010",
      "longitude": "4.7638900",
      "destinations": [
        {
          "id": 11202,
          "pair_id": 129960,
          "name": "Frankfurt-Main",
          "icao": "EDDF",
          "iata": "FRA",
          "latitude": "50.0365210",
          "longitude": "8.5612680",
          "callsigns": "DLH",
          "types": "A20N,A21N,A319,A320,A321,CRJ9,E190",
          "distance": 198,
          "time": "01:05:00"
        },
        {
          "id": 11518,
          "pair_id": 242252,
          "name": "Munich",
          "icao": "EDDM",
          "iata": "MUC",
          "latitude": "48.3538020",
          "longitude": "11.7861000",
          "callsigns": "DLH",
          "types": "A20N,A21N,A319,A320,A321,CRJ9",
          "distance": 358,
          "time": "01:24:10"
        }
      ],
      "aircrafts": [
        "A20N",
        "A21N",
        "A319",
        "A320",
        "A321",
        "CRJ9",
        "E190",
        "A20N",
        "A21N",
        "A319",
        "A320",
        "A321",
        "A20N",
        "A21N",
        "A319",
        "A320",
        "A321",
        "CRJ9",
        "A319",
        "CRJ9"
      ]
    },
    {
      "id": 11270,
      "name": "Athens Eleftherios Venizelos",
      "icao": "LGAV",
      "iata": "ATH",
      "base": false,
      "latitude": "37.9364010",
      "longitude": "23.9445000",
      "destinations": [
        {
          "id": 11202,
          "pair_id": 129071,
          "name": "Frankfurt-Main",
          "icao": "EDDF",
          "iata": "FRA",
          "latitude": "50.0365210",
          "longitude": "8.5612680",
          "callsigns": "GEC,DLH",
          "types": "A21F,A20N,A21N,A319,A320,A321,CRJ9",
          "distance": 980,
          "time": "03:02:00"
        },
        {
          "id": 11518,
          "pair_id": 129072,
          "name": "Munich",
          "icao": "EDDM",
          "iata": "MUC",
          "latitude": "48.3538020",
          "longitude": "11.7861000",
          "callsigns": "DLH",
          "types": "A20N,A21N,A319,A320,A321",
          "distance": 819,
          "time": "02:37:30"
        }
      ],
      "aircrafts": [
        "A21F",
        "A20N",
        "A21N",
        "A319",
        "A320",
        "A321",
        "A20N",
        "A21N",
        "A319",
        "A320",
        "A321",
        "CRJ9"
      ]
    },
    {
      "id": 11271,
      "name": "Bahrain",
      "icao": "OBBI",
      "iata": "BAH",
      "base": false,
      "latitude": "26.2672950",
      "longitude": "50.6376400",
      "destinations": [
        {
          "id": 11391,
          "pair_id": 277039,
          "name": "Riyadh King Khalid",
          "icao": "OERK",
          "iata": "RUH",
          "latitude": "24.9576000",
          "longitude": "46.6987990",
          "callsigns": "DLH",
          "types": "A333,A343",
          "distance": 227,
          "time": "01:20:00"
        }
      ],
      "aircrafts": [
        "A333",
        "A343"
      ]
    },
    {
      "id": 11272,
      "name": "Bangkok Suvarnabhumi",
      "icao": "VTBS",
      "iata": "BKK",
      "base": false,
      "latitude": "13.6810999",
      "longitude": "100.7470016",
      "destinations": [
        {
          "id": 11518,
          "pair_id": 1081657,
          "name": "Munich",
          "icao": "EDDM",
          "iata": "MUC",
          "latitude": "48.3538020",
          "longitude": "11.7861000",
          "callsigns": "DLH",
          "types": "A359",
          "distance": 4748,
          "time": "10:20:00"
        }
      ],
      "aircrafts": [
        "A359"
      ]
    },
    {
      "id": 11275,
      "name": "Barcelona El Prat",
      "icao": "LEBL",
      "iata": "BCN",
      "base": false,
      "latitude": "41.2971000",
      "longitude": "2.0784600",
      "destinations": [
        {
          "id": 11202,
          "pair_id": 129180,
          "name": "Frankfurt-Main",
          "icao": "EDDF",
          "iata": "FRA",
          "latitude": "50.0365210",
          "longitude": "8.5612680",
          "callsigns": "DLH",
          "types": "A20N,A21N,A319,A320,A321,CRJ9,E190",
          "distance": 590,
          "time": "02:10:38"
        },
        {
          "id": 11518,
          "pair_id": 129279,
          "name": "Munich",
          "icao": "EDDM",
          "iata": "MUC",
          "latitude": "48.3538020",
          "longitude": "11.7861000",
          "callsigns": "DLH",
          "types": "A20N,A21N,A319,A320,A321",
          "distance": 591,
          "time": "02:00:00"
        }
      ],
      "aircrafts": [
        "A20N",
        "A21N",
        "A319",
        "A320",
        "A321",
        "A20N",
        "A21N",
        "A319",
        "A320",
        "A321",
        "CRJ9",
        "E190"
      ]
    },
    {
      "id": 11278,
      "name": "Beijing Capital",
      "icao": "ZBAA",
      "iata": "PEK",
      "base": false,
      "latitude": "40.0801010",
      "longitude": "116.5849991",
      "destinations": [
        {
          "id": 11202,
          "pair_id": 1527036,
          "name": "Frankfurt-Main",
          "icao": "EDDF",
          "iata": "FRA",
          "latitude": "50.0365210",
          "longitude": "8.5612680",
          "callsigns": "DLH,GEC",
          "types": "B744,B748,B77L",
          "distance": 4210,
          "time": "12:35:00"
        },
        {
          "id": 11518,
          "pair_id": 1908577,
          "name": "Munich",
          "icao": "EDDM",
          "iata": "MUC",
          "latitude": "48.3538020",
          "longitude": "11.7861000",
          "callsigns": "DLH",
          "types": "A359",
          "distance": 4166,
          "time": "12:10:00"
        }
      ],
      "aircrafts": [
        "B744",
        "B748",
        "B77L",
        "A359"
      ]
    },
    {
      "id": 11279,
      "name": "Beirut Rafic Hariri",
      "icao": "OLBA",
      "iata": "BEY",
      "base": false,
      "latitude": "33.8209000",
      "longitude": "35.4883995",
      "destinations": [
        {
          "id": 11202,
          "pair_id": 2124384,
          "name": "Frankfurt-Main",
          "icao": "EDDF",
          "iata": "FRA",
          "latitude": "50.0365210",
          "longitude": "8.5612680",
          "callsigns": "DLH",
          "types": "A20N,A21N,A319,A320,A321",
          "distance": 1532,
          "time": "04:30:00"
        }
      ],
      "aircrafts": [
        "A20N",
        "A21N",
        "A319",
        "A320",
        "A321"
      ]
    },
    {
      "id": 11280,
      "name": "Belgrade Nikola Tesla",
      "icao": "LYBE",
      "iata": "BEG",
      "base": false,
      "latitude": "44.8184010",
      "longitude": "20.3090990",
      "destinations": [
        {
          "id": 11202,
          "pair_id": 129091,
          "name": "Frankfurt-Main",
          "icao": "EDDF",
          "iata": "FRA",
          "latitude": "50.0365210",
          "longitude": "8.5612680",
          "callsigns": "DLH",
          "types": "A20N,A21N,A319,A320,A321",
          "distance": 569,
          "time": "01:58:20"
        },
        {
          "id": 11518,
          "pair_id": 206341,
          "name": "Munich",
          "icao": "EDDM",
          "iata": "MUC",
          "latitude": "48.3538020",
          "longitude": "11.7861000",
          "callsigns": "DLH",
          "types": "A20N,A21N,A319,A320,A321,CRJ9",
          "distance": 410,
          "time": "01:32:30"
        }
      ],
      "aircrafts": [
        "A20N",
        "A21N",
        "A319",
        "A320",
        "A321",
        "A20N",
        "A21N",
        "A319",
        "A320",
        "A321",
        "CRJ9"
      ]
    },
    {
      "id": 11281,
      "name": "Bengaluru Kempegowda",
      "icao": "VOBL",
      "iata": "BLR",
      "base": false,
      "latitude": "13.1979000",
      "longitude": "77.7062990",
      "destinations": [
        {
          "id": 11202,
          "pair_id": 129132,
          "name": "Frankfurt-Main",
          "icao": "EDDF",
          "iata": "FRA",
          "latitude": "50.0365210",
          "longitude": "8.5612680",
          "callsigns": "DLH",
          "types": "B744,B748",
          "distance": 3994,
          "time": "09:50:00"
        },
        {
          "id": 11427,
          "pair_id": 129133,
          "name": "Hong Kong",
          "icao": "VHHH",
          "iata": "HKG",
          "latitude": "22.3089010",
          "longitude": "113.9150010",
          "callsigns": "GEC",
          "types": "B77L",
          "distance": 2134,
          "time": "05:20:00"
        },
        {
          "id": 11518,
          "pair_id": 2067750,
          "name": "Munich",
          "icao": "EDDM",
          "iata": "MUC",
          "latitude": "48.3538020",
          "longitude": "11.7861000",
          "callsigns": "DLH",
          "types": "A359",
          "distance": 3854,
          "time": "10:45:00"
        }
      ],
      "aircrafts": [
        "B744",
        "B748",
        "B77L",
        "A359"
      ]
    },
    {
      "id": 11282,
      "name": "Berlin Brandenburg",
      "icao": "EDDB",
      "iata": "BER",
      "base": false,
      "latitude": "52.3622470",
      "longitude": "13.5006720",
      "destinations": [
        {
          "id": 11202,
          "pair_id": 128913,
          "name": "Frankfurt-Main",
          "icao": "EDDF",
          "iata": "FRA",
          "latitude": "50.0365210",
          "longitude": "8.5612680",
          "callsigns": "DLH",
          "types": "A20N,A21N,A319,A320,A321,CRJ9,E190",
          "distance": 232,
          "time": "01:10:46"
        },
        {
          "id": 11518,
          "pair_id": 128914,
          "name": "Munich",
          "icao": "EDDM",
          "iata": "MUC",
          "latitude": "48.3538020",
          "longitude": "11.7861000",
          "callsigns": "DLH,LHX",
          "types": "A20N,A21N,A319,A320,A321,CRJ9,A20N_LHX,A319_LHX",
          "distance": 249,
          "time": "01:10:00"
        }
      ],
      "aircrafts": [
        "A20N",
        "A21N",
        "A319",
        "A320",
        "A321",
        "A20N",
        "A21N",
        "A319",
        "A320",
        "A321",
        "CRJ9",
        "E190",
        "A20N",
        "A21N",
        "A319",
        "A320",
        "A321",
        "CRJ9",
        "A20N_LHX",
        "A319_LHX"
      ]
    },
    {
      "id": 11284,
      "name": "Bilbao",
      "icao": "LEBB",
      "iata": "BIO",
      "base": false,
      "latitude": "43.3011020",
      "longitude": "-2.9106100",
      "destinations": [
        {
          "id": 11202,
          "pair_id": 129278,
          "name": "Frankfurt-Main",
          "icao": "EDDF",
          "iata": "FRA",
          "latitude": "50.0365210",
          "longitude": "8.5612680",
          "callsigns": "DLH",
          "types": "A20N,A21N,A319,A320,A321",
          "distance": 621,
          "time": "02:08:20"
        },
        {
          "id": 11518,
          "pair_id": 222751,
          "name": "Munich",
          "icao": "EDDM",
          "iata": "MUC",
          "latitude": "48.3538020",
          "longitude": "11.7861000",
          "callsigns": "DLH",
          "types": "A20N,A21N,A319,A320,A321",
          "distance": 684,
          "time": "02:08:20"
        }
      ],
      "aircrafts": [
        "A20N",
        "A21N",
        "A319",
        "A320",
        "A321"
      ]
    },
    {
      "id": 11285,
      "name": "Billund",
      "icao": "EKBI",
      "iata": "BLL",
      "base": false,
      "latitude": "55.7404960",
      "longitude": "9.1604520",
      "destinations": [
        {
          "id": 11202,
          "pair_id": 129039,
          "name": "Frankfurt-Main",
          "icao": "EDDF",
          "iata": "FRA",
          "latitude": "50.0365210",
          "longitude": "8.5612680",
          "callsigns": "DLH",
          "types": "A20N,A21N,A319,A320,A321,CRJ9,E190",
          "distance": 343,
          "time": "01:25:00"
        },
        {
          "id": 11518,
          "pair_id": 1131785,
          "name": "Munich",
          "icao": "EDDM",
          "iata": "MUC",
          "latitude": "48.3538020",
          "longitude": "11.7861000",
          "callsigns": "DLH",
          "types": "A319,CRJ9,A20N,A21N,A320,A321",
          "distance": 454,
          "time": "01:37:30"
        }
      ],
      "aircrafts": [
        "A20N",
        "A21N",
        "A319",
        "A320",
        "A321",
        "CRJ9",
        "E190",
        "A20N",
        "A21N",
        "A319",
        "A320",
        "A321",
        "A20N",
        "A21N",
        "A319",
        "A320",
        "A321",
        "CRJ9",
        "A319",
        "CRJ9"
      ]
    },
    {
      "id": 11286,
      "name": "Birmingham",
      "icao": "EGBB",
      "iata": "BHX",
      "base": false,
      "latitude": "52.4538990",
      "longitude": "-1.7480300",
      "destinations": [
        {
          "id": 11332,
          "pair_id": 1744884,
          "name": "Dublin",
          "icao": "EIDW",
          "iata": "DUB",
          "latitude": "53.4287130",
          "longitude": "-6.2621210",
          "callsigns": "GEC",
          "types": "A21F",
          "distance": 173,
          "time": "01:00:00"
        },
        {
          "id": 11202,
          "pair_id": 129036,
          "name": "Frankfurt-Main",
          "icao": "EDDF",
          "iata": "FRA",
          "latitude": "50.0365210",
          "longitude": "8.5612680",
          "callsigns": "DLH",
          "types": "A20N,A21N,A319,A320,A321,E190,CRJ9",
          "distance": 413,
          "time": "01:32:30"
        },
        {
          "id": 11518,
          "pair_id": 1004217,
          "name": "Munich",
          "icao": "EDDM",
          "iata": "MUC",
          "latitude": "48.3538020",
          "longitude": "11.7861000",
          "callsigns": "DLH,LHX",
          "types": "A20N,A319,A320,A321,CRJ9,A20N_LHX,A319_LHX",
          "distance": 572,
          "time": "01:50:00"
        }
      ],
      "aircrafts": [
        "A20N",
        "A21N",
        "A319",
        "A320",
        "A321",
        "E190",
        "A20N",
        "A21N",
        "A319",
        "A320",
        "A321",
        "A20N",
        "A21N",
        "A319",
        "A320",
        "A321",
        "CRJ9",
        "E190",
        "A319",
        "CRJ9",
        "E190",
        "A20N",
        "A319",
        "A320",
        "A321",
        "CRJ9",
        "A20N_LHX",
        "A319_LHX",
        "A21F"
      ]
    },
    {
      "id": 11287,
      "name": "Bogota El Dorado",
      "icao": "SKBO",
      "iata": "BOG",
      "base": false,
      "latitude": "4.7015900",
      "longitude": "-74.1469000",
      "destinations": [
        {
          "id": 11202,
          "pair_id": 129243,
          "name": "Frankfurt-Main",
          "icao": "EDDF",
          "iata": "FRA",
          "latitude": "50.0365210",
          "longitude": "8.5612680",
          "callsigns": "DLH",
          "types": "A343,A346",
          "distance": 4903,
          "time": "11:25:00"
        }
      ],
      "aircrafts": [
        "A343",
        "A346"
      ]
    },
    {
      "id": 11288,
      "name": "Bologna Guglielmo Marconi",
      "icao": "LIPE",
      "iata": "BLQ",
      "base": false,
      "latitude": "44.5354000",
      "longitude": "11.2887000",
      "destinations": [
        {
          "id": 11202,
          "pair_id": 129074,
          "name": "Frankfurt-Main",
          "icao": "EDDF",
          "iata": "FRA",
          "latitude": "50.0365210",
          "longitude": "8.5612680",
          "callsigns": "DLH",
          "types": "A20N,A21N,A319,A320,A321,CRJ9,E190",
          "distance": 348,
          "time": "01:30:00"
        }
      ],
      "aircrafts": [
        "A20N",
        "A21N",
        "A319",
        "A320",
        "A321",
        "CRJ9",
        "E190",
        "A20N",
        "A21N",
        "A319",
        "A320",
        "A321"
      ]
    },
    {
      "id": 11289,
      "name": "Boston Logan",
      "icao": "KBOS",
      "iata": "BOS",
      "base": false,
      "latitude": "42.3643000",
      "longitude": "-71.0052030",
      "destinations": [
        {
          "id": 11202,
          "pair_id": 319344,
          "name": "Frankfurt-Main",
          "icao": "EDDF",
          "iata": "FRA",
          "latitude": "50.0365210",
          "longitude": "8.5612680",
          "callsigns": "DLH",
          "types": "A343,A346,A333",
          "distance": 3177,
          "time": "07:22:30"
        },
        {
          "id": 11518,
          "pair_id": 1086403,
          "name": "Munich",
          "icao": "EDDM",
          "iata": "MUC",
          "latitude": "48.3538020",
          "longitude": "11.7861000",
          "callsigns": "DLH",
          "types": "A346,A388",
          "distance": 3335,
          "time": "07:10:00"
        }
      ],
      "aircrafts": [
        "A343",
        "A346",
        "A333",
        "A343",
        "A346",
        "A346",
        "A388"
      ]
    },
    {
      "id": 11290,
      "name": "Bremen",
      "icao": "EDDW",
      "iata": "BRE",
      "base": false,
      "latitude": "53.0467860",
      "longitude": "8.7893200",
      "destinations": [
        {
          "id": 11202,
          "pair_id": 129032,
          "name": "Frankfurt-Main",
          "icao": "EDDF",
          "iata": "FRA",
          "latitude": "50.0365210",
          "longitude": "8.5612680",
          "callsigns": "DLH",
          "types": "A20N,A21N,A319,A320,A321,CRJ9,E190",
          "distance": 181,
          "time": "01:00:00"
        },
        {
          "id": 11518,
          "pair_id": 129033,
          "name": "Munich",
          "icao": "EDDM",
          "iata": "MUC",
          "latitude": "48.3538020",
          "longitude": "11.7861000",
          "callsigns": "DLH,LHX",
          "types": "A20N,A21N,A319,A320,A321,CRJ9,A20N_LHX,A319_LHX",
          "distance": 304,
          "time": "01:14:17"
        }
      ],
      "aircrafts": [
        "A20N",
        "A21N",
        "A319",
        "A320",
        "A321",
        "CRJ9",
        "E190",
        "A319",
        "CRJ9",
        "E190",
        "A20N",
        "A21N",
        "A319",
        "A320",
        "A321",
        "CRJ9",
        "A20N_LHX",
        "A319_LHX"
      ]
    },
    {
      "id": 11291,
      "name": "Brussels",
      "icao": "EBBR",
      "iata": "BRU",
      "base": false,
      "latitude": "50.9014020",
      "longitude": "4.4844400",
      "destinations": [
        {
          "id": 11302,
          "pair_id": 2466469,
          "name": "Chicago O'Hare",
          "icao": "KORD",
          "iata": "ORD",
          "latitude": "41.9786000",
          "longitude": "-87.9048000",
          "callsigns": "GEC",
          "types": "B77L",
          "distance": 3602,
          "time": "08:05:00"
        },
        {
          "id": 11202,
          "pair_id": 129140,
          "name": "Frankfurt-Main",
          "icao": "EDDF",
          "iata": "FRA",
          "latitude": "50.0365210",
          "longitude": "8.5612680",
          "callsigns": "DLH",
          "types": "A319,CRJ9,E190,A20N,A21N,A320,A321",
          "distance": 164,
          "time": "01:00:00"
        },
        {
          "id": 11518,
          "pair_id": 128912,
          "name": "Munich",
          "icao": "EDDM",
          "iata": "MUC",
          "latitude": "48.3538020",
          "longitude": "11.7861000",
          "callsigns": "DLH",
          "types": "A20N,A21N,A319,A320,A321,CRJ9,E190",
          "distance": 322,
          "time": "01:15:00"
        }
      ],
      "aircrafts": [
        "A20N",
        "A21N",
        "A319",
        "A320",
        "A321",
        "CRJ9",
        "A20N",
        "A21N",
        "A319",
        "A320",
        "A321",
        "CRJ9",
        "E190",
        "A319",
        "CRJ9",
        "E190",
        "A20N",
        "A21N",
        "A319",
        "A320",
        "A321",
        "B77L"
      ]
    },
    {
      "id": 11292,
      "name": "Bucharest Henri Coanda",
      "icao": "LROP",
      "iata": "OTP",
      "base": false,
      "latitude": "44.5721270",
      "longitude": "26.1033960",
      "destinations": [
        {
          "id": 11202,
          "pair_id": 129087,
          "name": "Frankfurt-Main",
          "icao": "EDDF",
          "iata": "FRA",
          "latitude": "50.0365210",
          "longitude": "8.5612680",
          "callsigns": "DLH",
          "types": "A20N,A21N,A319,A320,A321",
          "distance": 782,
          "time": "02:33:20"
        },
        {
          "id": 11518,
          "pair_id": 129088,
          "name": "Munich",
          "icao": "EDDM",
          "iata": "MUC",
          "latitude": "48.3538020",
          "longitude": "11.7861000",
          "callsigns": "DLH",
          "types": "A20N,A21N,A319,A320,A321",
          "distance": 632,
          "time": "02:05:00"
        }
      ],
      "aircrafts": [
        "A20N",
        "A21N",
        "A319",
        "A320",
        "A321"
      ]
    },
    {
      "id": 11293,
      "name": "Budapest Ferenc Liszt",
      "icao": "LHBP",
      "iata": "BUD",
      "base": false,
      "latitude": "47.4301800",
      "longitude": "19.2623930",
      "destinations": [
        {
          "id": 11202,
          "pair_id": 129073,
          "name": "Frankfurt-Main",
          "icao": "EDDF",
          "iata": "FRA",
          "latitude": "50.0365210",
          "longitude": "8.5612680",
          "callsigns": "DLH",
          "types": "A20N,A21N,A319,A320,A321",
          "distance": 450,
          "time": "01:44:00"
        },
        {
          "id": 11518,
          "pair_id": 206338,
          "name": "Munich",
          "icao": "EDDM",
          "iata": "MUC",
          "latitude": "48.3538020",
          "longitude": "11.7861000",
          "callsigns": "DLH",
          "types": "A20N,A21N,A319,A320,A321,CRJ9",
          "distance": 306,
          "time": "01:16:15"
        }
      ],
      "aircrafts": [
        "A20N",
        "A21N",
        "A319",
        "A320",
        "A321",
        "A20N",
        "A21N",
        "A319",
        "A320",
        "A321",
        "CRJ9"
      ]
    },
    {
      "id": 11294,
      "name": "Buenos Aires Ministro Pistarini",
      "icao": "SAEZ",
      "iata": "EZE",
      "base": false,
      "latitude": "-34.8222000",
      "longitude": "-58.5358000",
      "destinations": [
        {
          "id": 11202,
          "pair_id": 131989,
          "name": "Frankfurt-Main",
          "icao": "EDDF",
          "iata": "FRA",
          "latitude": "50.0365210",
          "longitude": "8.5612680",
          "callsigns": "GEC,DLH",
          "types": "B77L,B744,B748",
          "distance": 6206,
          "time": "13:15:00"
        },
        {
          "id": 11557,
          "pair_id": 1028539,
          "name": "Viracopos \u2013 Campinas",
          "icao": "SBKP",
          "iata": "VCP",
          "latitude": "-23.0074040",
          "longitude": "-47.1345020",
          "callsigns": "GEC",
          "types": "B77L",
          "distance": 926,
          "time": "02:35:00"
        }
      ],
      "aircrafts": [
        "B77L",
        "B744",
        "B748"
      ]
    },
    {
      "id": 11295,
      "name": "Cairo",
      "icao": "HECA",
      "iata": "CAI",
      "base": false,
      "latitude": "30.1115340",
      "longitude": "31.3966940",
      "destinations": [
        {
          "id": 11202,
          "pair_id": 129322,
          "name": "Frankfurt-Main",
          "icao": "EDDF",
          "iata": "FRA",
          "latitude": "50.0365210",
          "longitude": "8.5612680",
          "callsigns": "GEC,DLH",
          "types": "A21F,A20N,A21N,A319,A320,A321,B77L",
          "distance": 1577,
          "time": "04:28:45"
        },
        {
          "id": 11518,
          "pair_id": 219814,
          "name": "Munich",
          "icao": "EDDM",
          "iata": "MUC",
          "latitude": "48.3538020",
          "longitude": "11.7861000",
          "callsigns": "DLH",
          "types": "A20N,A21N,A319,A320,A321",
          "distance": 1415,
          "time": "03:55:00"
        }
      ],
      "aircrafts": [
        "A21F",
        "A20N",
        "A21N",
        "A319",
        "A320",
        "A321",
        "B77L"
      ]
    },
    {
      "id": 11297,
      "name": "Cape Town",
      "icao": "FACT",
      "iata": "CPT",
      "base": false,
      "latitude": "-33.9648018",
      "longitude": "18.6016998",
      "destinations": [
        {
          "id": 11202,
          "pair_id": 129271,
          "name": "Frankfurt-Main",
          "icao": "EDDF",
          "iata": "FRA",
          "latitude": "50.0365210",
          "longitude": "8.5612680",
          "callsigns": "DLH",
          "types": "A333,A343",
          "distance": 5068,
          "time": "13:50:00"
        }
      ],
      "aircrafts": [
        "A333",
        "A343"
      ]
    },
    {
      "id": 11298,
      "name": "Catania Fontanarossa",
      "icao": "LICC",
      "iata": "CTA",
      "base": false,
      "latitude": "37.4668010",
      "longitude": "15.0664000",
      "destinations": [
        {
          "id": 11202,
          "pair_id": 216145,
          "name": "Frankfurt-Main",
          "icao": "EDDF",
          "iata": "FRA",
          "latitude": "50.0365210",
          "longitude": "8.5612680",
          "callsigns": "DLH",
          "types": "A20N,A21N,A319,A320,A321,CRJ9,E190",
          "distance": 804,
          "time": "02:37:30"
        },
        {
          "id": 11518,
          "pair_id": 208780,
          "name": "Munich",
          "icao": "EDDM",
          "iata": "MUC",
          "latitude": "48.3538020",
          "longitude": "11.7861000",
          "callsigns": "DLH",
          "types": "A20N,A21N,A319,A320,A321",
          "distance": 669,
          "time": "02:10:00"
        }
      ],
      "aircrafts": [
        "A20N",
        "A21N",
        "A319",
        "A320",
        "A321",
        "A20N",
        "A21N",
        "A319",
        "A320",
        "A321",
        "CRJ9",
        "E190"
      ]
    },
    {
      "id": 11301,
      "name": "Chengdu Shuangliu",
      "icao": "ZUUU",
      "iata": "CTU",
      "base": false,
      "latitude": "30.5582570",
      "longitude": "103.9459660",
      "destinations": [
        {
          "id": 11375,
          "pair_id": 2085021,
          "name": "Shanghai Pudong",
          "icao": "ZSPD",
          "iata": "PVG",
          "latitude": "31.1434000",
          "longitude": "121.8050000",
          "callsigns": "GEC",
          "types": "B77L",
          "distance": 920,
          "time": "02:35:00"
        }
      ],
      "aircrafts": [
        "B77L"
      ]
    },
    {
      "id": 11302,
      "name": "Chicago O'Hare",
      "icao": "KORD",
      "iata": "ORD",
      "base": false,
      "latitude": "41.9786000",
      "longitude": "-87.9048000",
      "destinations": [
        {
          "id": 11550,
          "pair_id": 129275,
          "name": "Dallas\/Fort Worth",
          "icao": "KDFW",
          "iata": "DFW",
          "latitude": "32.8968010",
          "longitude": "-97.0380020",
          "callsigns": "GEC",
          "types": "B77L",
          "distance": 696,
          "time": "01:44:24"
        },
        {
          "id": 11202,
          "pair_id": 319346,
          "name": "Frankfurt-Main",
          "icao": "EDDF",
          "iata": "FRA",
          "latitude": "50.0365210",
          "longitude": "8.5612680",
          "callsigns": "DLH,GEC",
          "types": "A346,B744,B748,A343,B77L",
          "distance": 3761,
          "time": "08:23:20"
        },
        {
          "id": 11518,
          "pair_id": 319463,
          "name": "Munich",
          "icao": "EDDM",
          "iata": "MUC",
          "latitude": "48.3538020",
          "longitude": "11.7861000",
          "callsigns": "DLH",
          "types": "A346,A359",
          "distance": 3922,
          "time": "09:02:30"
        }
      ],
      "aircrafts": [
        "B77L",
        "A346",
        "B744",
        "B748",
        "A343",
        "A346",
        "A346",
        "A359",
        "A359"
      ]
    },
    {
      "id": 11305,
      "name": "Cluj-Napoca",
      "icao": "LRCL",
      "iata": "CLJ",
      "base": false,
      "latitude": "46.7874250",
      "longitude": "23.6842920",
      "destinations": [
        {
          "id": 11518,
          "pair_id": 2414899,
          "name": "Munich",
          "icao": "EDDM",
          "iata": "MUC",
          "latitude": "48.3538020",
          "longitude": "11.7861000",
          "callsigns": "DLH",
          "types": "A319,CRJ9",
          "distance": 490,
          "time": "01:45:00"
        }
      ],
      "aircrafts": [
        "A319",
        "CRJ9"
      ]
    },
    {
      "id": 11306,
      "name": "Cologne Bonn",
      "icao": "EDDK",
      "iata": "CGN",
      "base": false,
      "latitude": "50.8658980",
      "longitude": "7.1427400",
      "destinations": [
        {
          "id": 11518,
          "pair_id": 129006,
          "name": "Munich",
          "icao": "EDDM",
          "iata": "MUC",
          "latitude": "48.3538020",
          "longitude": "11.7861000",
          "callsigns": "DLH,LHX",
          "types": "A20N,A21N,A319,A320,A321,CRJ9,A20N_LHX,A319_LHX",
          "distance": 235,
          "time": "01:05:00"
        }
      ],
      "aircrafts": [
        "A20N",
        "A21N",
        "A319",
        "A320",
        "A321",
        "CRJ9",
        "A20N",
        "A21N",
        "A319",
        "A320",
        "A321",
        "A319",
        "CRJ9",
        "A20N_LHX",
        "A319_LHX"
      ]
    },
    {
      "id": 11307,
      "name": "Copenhagen",
      "icao": "EKCH",
      "iata": "CPH",
      "base": false,
      "latitude": "55.6179008",
      "longitude": "12.6560001",
      "destinations": [
        {
          "id": 11202,
          "pair_id": 129040,
          "name": "Frankfurt-Main",
          "icao": "EDDF",
          "iata": "FRA",
          "latitude": "50.0365210",
          "longitude": "8.5612680",
          "callsigns": "GEC,DLH",
          "types": "A21F,A20N,A21N,A319,A320,A321",
          "distance": 366,
          "time": "01:28:20"
        },
        {
          "id": 11518,
          "pair_id": 131447,
          "name": "Munich",
          "icao": "EDDM",
          "iata": "MUC",
          "latitude": "48.3538020",
          "longitude": "11.7861000",
          "callsigns": "DLH",
          "types": "A20N,A21N,A319,A320,A321,CRJ9",
          "distance": 437,
          "time": "01:34:10"
        }
      ],
      "aircrafts": [
        "A21F",
        "A20N",
        "A21N",
        "A319",
        "A320",
        "A321",
        "A20N",
        "A21N",
        "A319",
        "A320",
        "A321",
        "CRJ9"
      ]
    },
    {
      "id": 11308,
      "name": "Corfu",
      "icao": "LGKR",
      "iata": "CFU",
      "base": false,
      "latitude": "39.6018980",
      "longitude": "19.9116990",
      "destinations": [
        {
          "id": 11518,
          "pair_id": 2450850,
          "name": "Munich",
          "icao": "EDDM",
          "iata": "MUC",
          "latitude": "48.3538020",
          "longitude": "11.7861000",
          "callsigns": "DLH",
          "types": "A20N,A21N,A319,A320,A321",
          "distance": 631,
          "time": "02:05:00"
        }
      ],
      "aircrafts": [
        "A20N",
        "A21N",
        "A319",
        "A320",
        "A321"
      ]
    },